[{"Id":2,"ImgPath":"/Images/Restourants/Vapiano.jpg","Location":{"City":"Beograd","Address":"Kalemegdan bb","Latitude":44.822,"Longitude":20.447},"Name":"Vapiano","Rating":5.0},{"Id":4,"ImgPath":"/Images/Restourants/Skadarlija.jpg","Location":{"City":"Beograd","Address":"Kalemegdan bb","Latitude":44.822,"Longitude":20.447},"Name":"Skadarlija","Rating":5.0},{"Id":5,"ImgPath":"/Images/Restourants/Camelot.jpg","Location":{"City":"Novi Sad","Address":"Tvrdjava bb","Latitude":45.254,"Longitude":19.867},"Name":"Camelot","Rating":5.0},{"Id":6,"ImgPath":"/Images/Restourants/IrishPub.jpg","Location":{"City":"Novi Sad","Address":"Tvrdjava bb","Latitude":45.254,"Longitude":19.867},"Name":"Irish Cow Pub","Rating":5.0},{"Id":8,"ImgPath":"/Images/Restourants/As.jpg","Location":{"City":"Kraljevo","Address":"12345","Latitude":43.466,"Longitude":20.715},"Name":"As","Rating":5.0},{"Id":1,"ImgPath":"/Images/Restourants/Bottega.jpg","Location":{"City":"Beograd","Address":"Beograd\tKalemegdan bb\t44.822\t20.447","Latitude":44.822,"Longitude":20.447},"Name":"Bottega","Rating":5.0}]